foo
foo
$GPRMC,030935.00,A,3700.09221,N,11202.13235,W,0.003,331.49,190623,10.18,E,D*1C
$GPRMC,030936.00,A,3700.09222,N,11202.13234,W,0.001,331.48,190623,10.18,E,D*1E
$GPRMC,030937.00,A,3700.09224,N,11202.13233,W,0.000,331.48,190623,10.18,E,D*1F
$GPRMC,030938.00,A,3700.09226,N,11202.13231,W,0.002,331.47,190623,10.18,E,D*1D
$GPRMC,030939.00,A,3700.09227,N,11202.13230,W,0.002,331.47,190623,10.18,E,D*1C
$GPRMC,030940.00,A,3700.09229,N,11202.13228,W,0.001,331.49,190623,10.18,E,D*18
$GPRMC,030941.00,A,3700.09230,N,11202.13227,W,0.000,331.51,190623,10.18,E,D*16
$GPRMC,030942.00,A,3700.09231,N,11202.13225,W,0.002,331.52,190623,10.18,E,D*17
$GPRMC,030943.00,A,3700.09232,N,11202.13224,W,0.001,331.53,190623,10.18,E,D*16
$GPRMC,030944.00,A,3700.09233,N,11202.13223,W,0.003,331.54,190623,10.18,E,D*12
$GPRMC,030945.00,A,3700.09234,N,11202.13222,W,0.001,331.55,190623,10.18,E,D*16
$GPRMC,030946.00,A,3700.09235,N,11202.13220,W,0.003,331.55,190623,10.18,E,D*14
$GPRMC,030947.00,A,3700.09236,N,11202.13219,W,0.002,331.53,190623,10.18,E,D*1B
$GPRMC,030948.00,A,3700.09237,N,11202.13218,W,0.005,331.52,190623,10.18,E,D*12
$GPRMC,030949.00,A,3700.09237,N,11202.13217,W,0.003,331.55,190623,10.18,E,D*1D
$GPRMC,030950.00,A,3700.09238,N,11202.13216,W,0.002,331.56,190623,10.18,E,D*19
$GPRMC,030951.00,A,3700.09238,N,11202.13215,W,0.001,331.56,190623,10.18,E,D*18
$GPRMC,030952.00,A,3700.09238,N,11202.13214,W,0.003,331.56,190623,10.18,E,D*18
$GPRMC,030953.00,A,3700.09237,N,11202.13212,W,0.003,331.56,190623,10.18,E,D*10
$GPRMC,030954.00,A,3700.09236,N,11202.13210,W,0.001,331.56,190623,10.18,E,D*16
$GPRMC,030955.00,A,3700.09236,N,11202.13208,W,0.004,331.57,190623,10.18,E,D*1A
$GPRMC,030956.00,A,3700.09236,N,11202.13207,W,0.003,331.57,190623,10.18,E,D*11
$GPRMC,030957.00,A,3700.09235,N,11202.13206,W,0.002,331.57,190623,10.18,E,D*13
$GPRMC,030958.00,A,3700.09235,N,11202.13205,W,0.002,331.57,190623,10.18,E,D*1F
$GPRMC,030959.00,A,3700.09234,N,11202.13204,W,0.001,331.55,190623,10.18,E,D*1F
$GPRMC,031000.00,A,3700.09233,N,11202.13203,W,0.002,331.55,190623,10.18,E,D*18
$GPRMC,031001.00,A,3700.09234,N,11202.13202,W,0.002,331.55,190623,10.18,E,D*1F
$GPRMC,031002.00,A,3700.09234,N,11202.13202,W,0.001,331.55,190623,10.18,E,D*1F
$GPRMC,031003.00,A,3700.09234,N,11202.13201,W,0.003,331.53,190623,10.18,E,D*19
$GPRMC,031004.00,A,3700.09234,N,11202.13201,W,0.001,331.52,190623,10.18,E,D*1D
$GPRMC,031005.00,A,3700.09234,N,11202.13200,W,0.002,331.53,190623,10.18,E,D*1F
$GPRMC,031006.00,A,3700.09234,N,11202.13200,W,0.002,331.53,190623,10.18,E,D*1C
$GPRMC,031007.00,A,3700.09235,N,11202.13200,W,0.001,331.54,190623,10.18,E,D*18
$GPRMC,031008.00,A,3700.09235,N,11202.13200,W,0.002,331.54,190623,10.18,E,D*14
$GPRMC,031009.00,A,3700.09236,N,11202.13201,W,0.001,331.54,190623,10.18,E,D*14
$GPRMC,031010.00,A,3700.09236,N,11202.13201,W,0.001,331.53,190623,10.18,E,D*1B
$GPRMC,031011.00,A,3700.09237,N,11202.13201,W,0.001,331.53,190623,10.18,E,D*1B
$GPRMC,031012.00,A,3700.09237,N,11202.13202,W,0.003,331.52,190623,10.18,E,D*18
$GPRMC,031013.00,A,3700.09239,N,11202.13201,W,0.003,331.53,190623,10.18,E,D*15
$GPRMC,031014.00,A,3700.09240,N,11202.13201,W,0.001,331.51,190623,10.18,E,D*1C
$GPRMC,031015.00,A,3700.09241,N,11202.13200,W,0.003,331.50,190623,10.18,E,D*1E
$GPRMC,031016.00,A,3700.09243,N,11202.13200,W,0.002,331.50,190623,10.18,E,D*1E
$GPRMC,031017.00,A,3700.09244,N,11202.13200,W,0.001,331.51,190623,10.18,E,D*1A
$GPRMC,031018.00,A,3700.09245,N,11202.13200,W,0.003,331.52,190623,10.18,E,D*15
$GPRMC,031019.00,A,3700.09246,N,11202.13200,W,0.002,331.53,190623,10.18,E,D*17
$GPRMC,031020.00,A,3700.09246,N,11202.13200,W,0.001,331.53,190623,10.18,E,D*1E
$GPRMC,031021.00,A,3700.09246,N,11202.13200,W,0.002,331.53,190623,10.18,E,D*1C
$GPRMC,031022.00,A,3700.09247,N,11202.13200,W,0.002,331.52,190623,10.18,E,D*1F
$GPRMC,031023.00,A,3700.09247,N,11202.13200,W,0.001,331.54,190623,10.18,E,D*1B
$GPRMC,031024.00,A,3700.09247,N,11202.13200,W,0.002,331.53,190623,10.18,E,D*18
$GPRMC,031025.00,A,3700.09247,N,11202.13200,W,0.001,331.53,190623,10.18,E,D*1A
$GPRMC,031026.00,A,3700.09247,N,11202.13201,W,0.002,331.54,190623,10.18,E,D*1C
$GPRMC,031027.00,A,3700.09246,N,11202.13200,W,0.001,331.55,190623,10.18,E,D*1F
$GPRMC,031028.00,A,3700.09246,N,11202.13200,W,0.003,331.54,190623,10.18,E,D*13
$GPRMC,031029.00,A,3700.09246,N,11202.13200,W,0.003,331.51,190623,10.18,E,D*17
$GPRMC,031030.00,A,3700.09246,N,11202.13199,W,0.005,331.51,190623,10.18,E,D*1A
$GPRMC,031031.00,A,3700.09246,N,11202.13198,W,0.002,331.49,190623,10.18,E,D*14
$GPRMC,031032.00,A,3700.09246,N,11202.13198,W,0.001,331.48,190623,10.18,E,D*15
$GPRMC,031033.00,A,3700.09245,N,11202.13197,W,0.001,331.48,190623,10.18,E,D*18
$GPRMC,031034.00,A,3700.09245,N,11202.13197,W,0.002,331.48,190623,10.18,E,D*1C
$GPRMC,031035.00,A,3700.09244,N,11202.13197,W,0.001,331.48,190623,10.18,E,D*1F
$GPRMC,031036.00,A,3700.09243,N,11202.13197,W,0.002,331.46,190623,10.18,E,D*16
$GPRMC,031037.00,A,3700.09242,N,11202.13196,W,0.002,331.47,190623,10.18,E,D*16
$GPRMC,031038.00,A,3700.09241,N,11202.13195,W,0.004,331.46,190623,10.18,E,D*1E
$GPRMC,031039.00,A,3700.09239,N,11202.13194,W,0.002,331.45,190623,10.18,E,D*14
$GPRMC,031040.00,A,3700.09237,N,11202.13192,W,0.001,331.44,190623,10.18,E,D*10
$GPRMC,031041.00,A,3700.09235,N,11202.13191,W,0.002,331.43,190623,10.18,E,D*14
$GPRMC,031042.00,A,3700.09233,N,11202.13190,W,0.001,331.44,190623,10.18,E,D*14
$GPRMC,031043.00,A,3700.09230,N,11202.13189,W,0.002,331.45,190623,10.18,E,D*1C
$GPRMC,031044.00,A,3700.09228,N,11202.13187,W,0.003,331.44,190623,10.18,E,D*1C
$GPRMC,031045.00,A,3700.09226,N,11202.13186,W,0.001,331.43,190623,10.18,E,D*17
$GPRMC,031046.00,A,3700.09225,N,11202.13185,W,0.002,331.41,190623,10.18,E,D*15
$GPRMC,031047.00,A,3700.09223,N,11202.13184,W,0.003,331.38,190623,10.18,E,D*1C
$GPRMC,031048.00,A,3700.09223,N,11202.13184,W,0.001,331.40,190623,10.18,E,D*1E
$GPRMC,031049.00,A,3700.09222,N,11202.13184,W,0.002,331.42,190623,10.18,E,D*1F
$GPRMC,031050.00,A,3700.09221,N,11202.13184,W,0.004,331.41,190623,10.18,E,D*11
$GPRMC,031051.00,A,3700.09219,N,11202.13184,W,0.003,331.42,190623,10.18,E,D*1F
$GPRMC,031052.00,A,3700.09219,N,11202.13183,W,0.001,331.40,190623,10.18,E,D*1B
$GPRMC,031053.00,A,3700.09217,N,11202.13182,W,0.002,331.40,190623,10.18,E,D*16
$GPRMC,031054.00,A,3700.09216,N,11202.13182,W,0.002,331.41,190623,10.18,E,D*11
$GPRMC,031055.00,A,3700.09215,N,11202.13181,W,0.002,331.42,190623,10.18,E,D*13
$GPRMC,031056.00,A,3700.09214,N,11202.13180,W,0.002,331.43,190623,10.18,E,D*11
$GPRMC,031057.00,A,3700.09213,N,11202.13180,W,0.002,331.42,190623,10.18,E,D*16
$GPRMC,031058.00,A,3700.09212,N,11202.13179,W,0.002,331.43,190623,10.18,E,D*1F
$GPRMC,031059.00,A,3700.09212,N,11202.13179,W,0.001,331.44,190623,10.18,E,D*1A
$GPRMC,031100.00,A,3700.09213,N,11202.13179,W,0.001,331.42,190623,10.18,E,D*10
$GPRMC,031101.00,A,3700.09213,N,11202.13179,W,0.002,331.43,190623,10.18,E,D*13
$GPRMC,031102.00,A,3700.09214,N,11202.13179,W,0.004,331.43,190623,10.18,E,D*11
$GPRMC,031103.00,A,3700.09214,N,11202.13179,W,0.003,331.43,190623,10.18,E,D*17
$GPRMC,031104.00,A,3700.09215,N,11202.13179,W,0.002,331.42,190623,10.18,E,D*11
$GPRMC,031105.00,A,3700.09216,N,11202.13179,W,0.001,331.39,190623,10.18,E,D*1C
$GPRMC,031106.00,A,3700.09217,N,11202.13180,W,0.001,331.40,190623,10.18,E,D*16
$GPRMC,031107.00,A,3700.09219,N,11202.13181,W,0.003,331.40,190623,10.18,E,D*1A
$GPRMC,031108.00,A,3700.09220,N,11202.13182,W,0.002,331.38,190623,10.18,E,D*12
$GPRMC,031109.00,A,3700.09220,N,11202.13184,W,0.001,331.39,190623,10.18,E,D*17
$GPRMC,031110.00,A,3700.09221,N,11202.13187,W,0.001,331.38,190623,10.18,E,D*1C
$GPRMC,031111.00,A,3700.09222,N,11202.13190,W,0.002,331.38,190623,10.18,E,D*1B
$GPRMC,031112.00,A,3700.09222,N,11202.13193,W,0.001,331.37,190623,10.18,E,D*17
$GPRMC,031113.00,A,3700.09222,N,11202.13197,W,0.000,331.37,190623,10.18,E,D*13
$GPRMC,031114.00,A,3700.09222,N,11202.13200,W,0.001,331.37,190623,10.18,E,D*18
$GPRMC,031115.00,A,3700.09222,N,11202.13203,W,0.001,331.36,190623,10.18,E,D*1B
$GPRMC,031116.00,A,3700.09223,N,11202.13205,W,0.001,331.36,190623,10.18,E,D*1F
$GPRMC,031117.00,A,3700.09223,N,11202.13207,W,0.001,331.37,190623,10.18,E,D*1D
$GPRMC,031118.00,A,3700.09223,N,11202.13208,W,0.001,331.35,190623,10.18,E,D*1F
$GPRMC,031119.00,A,3700.09223,N,11202.13209,W,0.003,331.35,190623,10.18,E,D*1D
$GPRMC,031120.00,A,3700.09223,N,11202.13210,W,0.001,331.35,190623,10.18,E,D*1D
$GPRMC,031121.00,A,3700.09223,N,11202.13211,W,0.001,331.35,190623,10.18,E,D*1D
$GPRMC,031122.00,A,3700.09223,N,11202.13212,W,0.002,331.35,190623,10.18,E,D*1E
$GPRMC,031123.00,A,3700.09223,N,11202.13213,W,0.002,331.36,190623,10.18,E,D*1D
$GPRMC,031124.00,A,3700.09222,N,11202.13216,W,0.001,331.33,190623,10.18,E,D*18
$GPRMC,031125.00,A,3700.09222,N,11202.13219,W,0.002,331.32,190623,10.18,E,D*14
$GPRMC,031126.00,A,3700.09221,N,11202.13221,W,0.001,331.31,190623,10.18,E,D*1F
$GPRMC,031127.00,A,3700.09221,N,11202.13222,W,0.001,331.31,190623,10.18,E,D*1D
$GPRMC,031128.00,A,3700.09220,N,11202.13223,W,0.001,331.32,190623,10.18,E,D*11
$GPRMC,031129.00,A,3700.09220,N,11202.13223,W,0.000,331.31,190623,10.18,E,D*12
$GPRMC,031130.00,A,3700.09220,N,11202.13224,W,0.001,331.30,190623,10.18,E,D*1D
$GPRMC,031131.00,A,3700.09220,N,11202.13224,W,0.002,331.29,190623,10.18,E,D*17
$GPRMC,031132.00,A,3700.09220,N,11202.13223,W,0.003,331.28,190623,10.18,E,D*13
$GPRMC,031133.00,A,3700.09220,N,11202.13224,W,0.002,331.29,190623,10.18,E,D*15
$GPRMC,031134.00,A,3700.09220,N,11202.13225,W,0.002,331.31,190623,10.18,E,D*1A
$GPRMC,031135.00,A,3700.09220,N,11202.13226,W,0.000,331.31,190623,10.18,E,D*1A
$GPRMC,031136.00,A,3700.09220,N,11202.13226,W,0.002,331.30,190623,10.18,E,D*1A
$GPRMC,031137.00,A,3700.09220,N,11202.13227,W,0.001,331.31,190623,10.18,E,D*18
$GPRMC,031138.00,A,3700.09221,N,11202.13227,W,0.002,331.33,190623,10.18,E,D*17
$GPRMC,031139.00,A,3700.09221,N,11202.13228,W,0.003,331.33,190623,10.18,E,D*18
$GPRMC,031140.00,A,3700.09221,N,11202.13228,W,0.001,331.33,190623,10.18,E,D*14
$GPRMC,031141.00,A,3700.09222,N,11202.13228,W,0.002,331.34,190623,10.18,E,D*12
$GPRMC,031142.00,A,3700.09222,N,11202.13228,W,0.004,331.33,190623,10.18,E,D*10
$GPRMC,031143.00,A,3700.09223,N,11202.13228,W,0.001,331.33,190623,10.18,E,D*15
$GPRMC,031144.00,A,3700.09224,N,11202.13227,W,0.003,331.32,190623,10.18,E,D*19
$GPRMC,031145.00,A,3700.09225,N,11202.13227,W,0.000,331.31,190623,10.18,E,D*19
$GPRMC,031146.00,A,3700.09225,N,11202.13227,W,0.002,331.32,190623,10.18,E,D*1B
$GPRMC,031147.00,A,3700.09226,N,11202.13226,W,0.001,331.32,190623,10.18,E,D*1B
$GPRMC,031148.00,A,3700.09227,N,11202.13224,W,0.000,331.32,190623,10.18,E,D*16
$GPRMC,031149.00,A,3700.09229,N,11202.13222,W,0.002,331.32,190623,10.18,E,D*1D
$GPRMC,031150.00,A,3700.09230,N,11202.13221,W,0.000,331.31,190623,10.18,E,D*1F
$GPRMC,031151.00,A,3700.09231,N,11202.13221,W,0.000,331.29,190623,10.18,E,D*16
$GPRMC,031152.00,A,3700.09232,N,11202.13220,W,0.001,331.31,190623,10.18,E,D*1F
$GPRMC,031153.00,A,3700.09233,N,11202.13219,W,0.003,331.28,190623,10.18,E,D*1F
$GPRMC,031154.00,A,3700.09234,N,11202.13218,W,0.001,331.25,190623,10.18,E,D*11
$GPRMC,031155.00,A,3700.09235,N,11202.13216,W,0.002,331.25,190623,10.18,E,D*1C
$GPRMC,031156.00,A,3700.09235,N,11202.13214,W,0.002,331.24,190623,10.18,E,D*1C
$GPRMC,031157.00,A,3700.09236,N,11202.13213,W,0.001,331.24,190623,10.18,E,D*1A
$GPRMC,031158.00,A,3700.09237,N,11202.13212,W,0.001,331.24,190623,10.18,E,D*15
$GPRMC,031159.00,A,3700.09238,N,11202.13212,W,0.001,331.23,190623,10.18,E,D*1C
$GPRMC,031200.00,A,3700.09238,N,11202.13212,W,0.001,331.22,190623,10.18,E,D*12
$GPRMC,031201.00,A,3700.09240,N,11202.13213,W,0.001,331.22,190623,10.18,E,D*1D
$GPRMC,031202.00,A,3700.09242,N,11202.13213,W,0.002,331.21,190623,10.18,E,D*1C
$GPRMC,031203.00,A,3700.09243,N,11202.13213,W,0.000,331.19,190623,10.18,E,D*15
$GPRMC,031204.00,A,3700.09245,N,11202.13212,W,0.002,331.18,190623,10.18,E,D*16
$GPRMC,031205.00,A,3700.09246,N,11202.13209,W,0.003,331.18,190623,10.18,E,D*1F
$GPRMC,031206.00,A,3700.09248,N,11202.13208,W,0.001,331.18,190623,10.18,E,D*11
$GPRMC,031207.00,A,3700.09250,N,11202.13206,W,0.002,331.18,190623,10.18,E,D*14
$GPRMC,031208.00,A,3700.09252,N,11202.13204,W,0.003,331.17,190623,10.18,E,D*15
$GPRMC,031209.00,A,3700.09252,N,11202.13203,W,0.000,331.16,190623,10.18,E,D*11
$GPRMC,031210.00,A,3700.09253,N,11202.13201,W,0.001,331.16,190623,10.18,E,D*1B
$GPRMC,031211.00,A,3700.09254,N,11202.13199,W,0.002,331.15,190623,10.18,E,D*1F
$GPRMC,031212.00,A,3700.09255,N,11202.13197,W,0.002,331.16,190623,10.18,E,D*10
$GPRMC,031213.00,A,3700.09256,N,11202.13193,W,0.002,331.18,190623,10.18,E,D*18
$GPRMC,031214.00,A,3700.09257,N,11202.13189,W,0.002,331.19,190623,10.18,E,D*14
$GPRMC,031215.00,A,3700.09256,N,11202.13184,W,0.004,331.18,190623,10.18,E,D*1E
$GPRMC,031216.00,A,3700.09256,N,11202.13180,W,0.002,331.19,190623,10.18,E,D*1E
$GPRMC,031217.00,A,3700.09255,N,11202.13175,W,0.003,331.19,190623,10.18,E,D*17
$GPRMC,031218.00,A,3700.09252,N,11202.13169,W,0.003,331.20,190623,10.18,E,D*18
$GPRMC,031219.00,A,3700.09252,N,11202.13163,W,0.002,331.21,190623,10.18,E,D*13
$GPRMC,031220.00,A,3700.09251,N,11202.13157,W,0.002,331.19,190623,10.18,E,D*16
$GPRMC,031221.00,A,3700.09249,N,11202.13152,W,0.004,331.20,190623,10.18,E,D*17
$GPRMC,031222.00,A,3700.09248,N,11202.13147,W,0.002,331.23,190623,10.18,E,D*14
$GPRMC,031223.00,A,3700.09247,N,11202.13142,W,0.003,331.24,190623,10.18,E,D*19
$GPRMC,031224.00,A,3700.09246,N,11202.13138,W,0.002,331.22,190623,10.18,E,D*15
$GPRMC,031225.00,A,3700.09244,N,11202.13136,W,0.004,331.23,190623,10.18,E,D*1F
$GPRMC,031226.00,A,3700.09244,N,11202.13132,W,0.001,331.23,190623,10.18,E,D*1D
$GPRMC,031227.00,A,3700.09243,N,11202.13128,W,0.003,331.24,190623,10.18,E,D*15
$GPRMC,031228.00,A,3700.09243,N,11202.13125,W,0.002,331.23,190623,10.18,E,D*11
$GPRMC,031229.00,A,3700.09242,N,11202.13124,W,0.002,331.24,190623,10.18,E,D*17
$GPRMC,031230.00,A,3700.09239,N,11202.13123,W,0.001,331.22,190623,10.18,E,D*11
$GPRMC,031231.00,A,3700.09239,N,11202.13122,W,0.001,331.24,190623,10.18,E,D*17
$GPRMC,031232.00,A,3700.09237,N,11202.13121,W,0.002,331.25,190623,10.18,E,D*1B
$GPRMC,031233.00,A,3700.09236,N,11202.13119,W,0.002,331.28,190623,10.18,E,D*1D
$GPRMC,031234.00,A,3700.09235,N,11202.13118,W,0.005,331.28,190623,10.18,E,D*1F
$GPRMC,031235.00,A,3700.09234,N,11202.13117,W,0.002,331.29,190623,10.18,E,D*16
$GPRMC,031236.00,A,3700.09233,N,11202.13115,W,0.001,331.30,190623,10.18,E,D*1B
$GPRMC,031237.00,A,3700.09232,N,11202.13113,W,0.001,331.31,190623,10.18,E,D*1C
$GPRMC,031238.00,A,3700.09231,N,11202.13112,W,0.002,331.31,190623,10.18,E,D*12
$GPRMC,031239.00,A,3700.09230,N,11202.13111,W,0.003,331.31,190623,10.18,E,D*10
$GPRMC,031240.00,A,3700.09229,N,11202.13110,W,0.002,331.30,190623,10.18,E,D*17
$GPRMC,031241.00,A,3700.09228,N,11202.13109,W,0.001,331.31,190623,10.18,E,D*1D
$GPRMC,031242.00,A,3700.09226,N,11202.13109,W,0.001,331.30,190623,10.18,E,D*11
$GPRMC,031243.00,A,3700.09224,N,11202.13107,W,0.002,331.33,190623,10.18,E,D*1C
$GPRMC,031244.00,A,3700.09222,N,11202.13107,W,0.000,331.33,190623,10.18,E,D*1F
$GPRMC,031245.00,A,3700.09219,N,11202.13107,W,0.001,331.33,190623,10.18,E,D*17
$GPRMC,031246.00,A,3700.09215,N,11202.13107,W,0.001,331.33,190623,10.18,E,D*18
$GPRMC,031247.00,A,3700.09213,N,11202.13107,W,0.001,331.34,190623,10.18,E,D*18
$GPRMC,031248.00,A,3700.09211,N,11202.13106,W,0.002,331.34,190623,10.18,E,D*17
$GPRMC,031249.00,A,3700.09209,N,11202.13105,W,0.004,331.34,190623,10.18,E,D*1A
$GPRMC,031250.00,A,3700.09208,N,11202.13105,W,0.003,331.33,190623,10.18,E,D*13
$GPRMC,031251.00,A,3700.09206,N,11202.13105,W,0.005,331.33,190623,10.18,E,D*1A
$GPRMC,031252.00,A,3700.09205,N,11202.13106,W,0.002,331.34,190623,10.18,E,D*19
$GPRMC,031253.00,A,3700.09203,N,11202.13107,W,0.002,331.34,190623,10.18,E,D*1F
$GPRMC,031254.00,A,3700.09200,N,11202.13109,W,0.002,331.32,190623,10.18,E,D*13
$GPRMC,031255.00,A,3700.09199,N,11202.13109,W,0.003,331.33,190623,10.18,E,D*11
$GPRMC,031256.00,A,3700.09195,N,11202.13110,W,0.001,331.34,190623,10.18,E,D*13
$GPRMC,031257.00,A,3700.09193,N,11202.13112,W,0.003,331.34,190623,10.18,E,D*14
$GPRMC,031258.00,A,3700.09190,N,11202.13113,W,0.001,331.35,190623,10.18,E,D*1A
$GPRMC,031259.00,A,3700.09186,N,11202.13114,W,0.002,331.34,190623,10.18,E,D*19
$GPRMC,031300.00,A,3700.09182,N,11202.13115,W,0.003,331.34,190623,10.18,E,D*10
$GPRMC,031301.00,A,3700.09177,N,11202.13117,W,0.002,331.34,190623,10.18,E,D*18
$GPRMC,031302.00,A,3700.09173,N,11202.13119,W,0.001,331.35,190623,10.18,E,D*13
$GPRMC,031303.00,A,3700.09168,N,11202.13120,W,0.001,331.36,190623,10.18,E,D*11
$GPRMC,031304.00,A,3700.09163,N,11202.13120,W,0.004,331.34,190623,10.18,E,D*1A
$GPRMC,031305.00,A,3700.09159,N,11202.13120,W,0.004,331.34,190623,10.18,E,D*12
$GPRMC,031306.00,A,3700.09156,N,11202.13120,W,0.002,331.36,190623,10.18,E,D*1A
$GPRMC,031307.00,A,3700.09154,N,11202.13119,W,0.002,331.35,190623,10.18,E,D*10
$GPRMC,031308.00,A,3700.09152,N,11202.13119,W,0.003,331.34,190623,10.18,E,D*19
$GPRMC,031309.00,A,3700.09150,N,11202.13119,W,0.004,331.35,190623,10.18,E,D*1C
$GPRMC,031310.00,A,3700.09149,N,11202.13119,W,0.002,331.35,190623,10.18,E,D*1A
$GPRMC,031311.00,A,3700.09147,N,11202.13119,W,0.004,331.36,190623,10.18,E,D*10
$GPRMC,031312.00,A,3700.09145,N,11202.13120,W,0.002,331.36,190623,10.18,E,D*1D
$GPRMC,031313.00,A,3700.09144,N,11202.13120,W,0.003,331.36,190623,10.18,E,D*1C
$GPRMC,031314.00,A,3700.09143,N,11202.13121,W,0.002,331.35,190623,10.18,E,D*1F
$GPRMC,031315.00,A,3700.09142,N,11202.13121,W,0.003,331.35,190623,10.18,E,D*1E
$GPRMC,031316.00,A,3700.09142,N,11202.13121,W,0.000,331.32,190623,10.18,E,D*19
$GPRMC,031317.00,A,3700.09141,N,11202.13122,W,0.002,331.34,190623,10.18,E,D*1C
$GPRMC,031318.00,A,3700.09141,N,11202.13122,W,0.001,331.32,190623,10.18,E,D*16
$GPRMC,031319.00,A,3700.09140,N,11202.13122,W,0.001,331.32,190623,10.18,E,D*16
$GPRMC,031320.00,A,3700.09140,N,11202.13122,W,0.001,331.32,190623,10.18,E,D*1C
$GPRMC,031321.00,A,3700.09140,N,11202.13121,W,0.001,331.31,190623,10.18,E,D*1D
$GPRMC,031322.00,A,3700.09140,N,11202.13121,W,0.002,331.30,190623,10.18,E,D*1C
$GPRMC,031323.00,A,3700.09139,N,11202.13121,W,0.002,331.31,190623,10.18,E,D*12
$GPRMC,031324.00,A,3700.09139,N,11202.13121,W,0.001,331.30,190623,10.18,E,D*17
$GPRMC,031325.00,A,3700.09138,N,11202.13121,W,0.000,331.29,190623,10.18,E,D*1E
$GPRMC,031326.00,A,3700.09137,N,11202.13121,W,0.001,331.30,190623,10.18,E,D*1B
$GPRMC,031327.00,A,3700.09137,N,11202.13122,W,0.001,331.29,190623,10.18,E,D*11
$GPRMC,031328.00,A,3700.09136,N,11202.13123,W,0.000,331.28,190623,10.18,E,D*1E
